{"atlanta": {"gt-klaus": {"toilets": 100, "sinks": 100, "area": 414000, "image": "gt-klaus.jpg", "hours": 12, "name": "Klaus Advanced Computing Building"}, "peachtree": {"toilets": "100", "sinks": "119", "area": "618,000 sq ft", "hours": "12", "name": "1100 Peachtree"}, "one-ga-center": {"toilets": 100, "sinks": 100, "area": 345000, "image": "one-ga-center.jpg", "hours": 12, "name": "One Georgia Center"}, "atlantic-center": {"toilets": "100", "sinks": "120", "area": "1,100,000 sq ft", "hours": "12", "name": "One Atlantic Center"}, "suntrust-plaza": {"toilets": "100", "sinks": "130", "area": "1,199,000 sq ft", "hours": "12", "name": "Sun Trust Plaza"}}, "barcelona": {"torre-sagrera": {"toilets": "100", "sinks": "50", "area": "853,700 sq ft", "image": "torre-sagrera.jpg", "hours": "12", "name": "Torre La Sagrera"}, "torre-inbisa": {"toilets": "100", "sinks": "110", "area": "215,280 sq ft", "hours": "12", "name": "Torre Inbisa"}, "agbar": {"toilets": "160", "sinks": "200", "area": "50693", "image": "agbar.jpg", "hours": "12", "name": "Torre Agbar"}, "torre-mapfre": {"hours": "12", "toilets": "100", "sinks": "100", "name": "Torre Mapfre", "area": "479,590 sq ft"}, "torre-realia": {"toilets": "100", "sinks": "101", "area": "489,000 sq ft", "hours": "12", "name": "Torre Realia BCN"}}}